{
  "stones": [
    {
      "id": 1,
      "name": "Nauris-Oskarin väkikivi",
      "location": "Hyrynsalmi",
      "weight_kg": null,
      "historical": "",
      "lat": 64.624,
      "lon": 28.3713,
      "northing": 7167265,
      "easting": 565571,
      "notes": ""
    },
    {
      "id": 2,
      "name": "Tåmasasstejne",
      "location": "Kruunupyy",
      "weight_kg": null,
      "historical": "",
      "lat": 63.6995,
      "lon": 23.3442,
      "northing": 7068699,
      "easting": 319342,
      "notes": ""
    },
    {
      "id": 3,
      "name": "Risbackasten",
      "location": "Kruunupyy",
      "weight_kg": null,
      "historical": "",
      "lat": 63.543,
      "lon": 23.5097,
      "northing": 7050819,
      "easting": 326563,
      "notes": ""
    },
    {
      "id": 4,
      "name": "Skrifskolstennar #1",
      "location": "Vöyri",
      "weight_kg": null,
      "historical": "",
      "lat": 63.2954,
      "lon": 22.3801,
      "northing": 7026842,
      "easting": 268507,
      "notes": ""
    },
    {
      "id": 5,
      "name": "Skrifskolstennar #2",
      "location": "Pietarsaari",
      "weight_kg": null,
      "historical": "",
      "lat": 63.6641,
      "lon": 22.6997,
      "northing": 7066739,
      "easting": 287261,
      "notes": ""
    },
    {
      "id": 6,
      "name": "Skrifskolstennar #3",
      "location": "Kruunupyy",
      "weight_kg": null,
      "historical": "",
      "lat": 63.5443,
      "lon": 23.4983,
      "northing": 7050996,
      "easting": 326006,
      "notes": ""
    },
    {
      "id": 7,
      "name": "Junntansten",
      "location": "Uusikaarlepyy",
      "weight_kg": null,
      "historical": "",
      "lat": 63.5326,
      "lon": 22.5232,
      "northing": 7052720,
      "easting": 277515,
      "notes": ""
    },
    {
      "id": 8,
      "name": "Ungkarlsstenen",
      "location": "Uusikaarlepyy",
      "weight_kg": null,
      "historical": "",
      "lat": 63.4545,
      "lon": 22.4317,
      "northing": 7044358,
      "easting": 272354,
      "notes": ""
    },
    {
      "id": 9,
      "name": "Stubbåkers Grisen",
      "location": "Uusikaarlepyy",
      "weight_kg": null,
      "historical": "",
      "lat": 63.4198,
      "lon": 22.3098,
      "northing": 7040941,
      "easting": 266005,
      "notes": ""
    },
    {
      "id": 10,
      "name": "Karperö lyftsten",
      "location": "Mustasaari",
      "weight_kg": null,
      "historical": "",
      "lat": 63.1614,
      "lon": 21.7023,
      "northing": 7014587,
      "easting": 233365,
      "notes": ""
    },
    {
      "id": 11,
      "name": "Södra Björköstenet",
      "location": "Korsnäs",
      "weight_kg": null,
      "historical": "",
      "lat": 62.7439,
      "lon": 21.0516,
      "northing": 6971086,
      "easting": 196380,
      "notes": ""
    },
    {
      "id": 12,
      "name": "Hiiden äijän väkikivi",
      "location": "Perho",
      "weight_kg": null,
      "historical": "",
      "lat": 63.3253,
      "lon": 24.6453,
      "northing": 7023994,
      "easting": 382076,
      "notes": ""
    },
    {
      "id": 13,
      "name": "Porasen tuvan väkikivi",
      "location": "Perho",
      "weight_kg": null,
      "historical": "",
      "lat": 63.1546,
      "lon": 24.2506,
      "northing": 7005778,
      "easting": 361503,
      "notes": ""
    },
    {
      "id": 14,
      "name": "Jylhän naisten väkikivi",
      "location": "Perho",
      "weight_kg": null,
      "historical": "",
      "lat": 63.1886,
      "lon": 24.5372,
      "northing": 7008985,
      "easting": 376080,
      "notes": ""
    },
    {
      "id": 15,
      "name": "Tohnisen äijän kivi",
      "location": "Alavus",
      "weight_kg": null,
      "historical": "",
      "lat": 62.7045,
      "lon": 23.796,
      "northing": 6956737,
      "easting": 336118,
      "notes": ""
    },
    {
      "id": 16,
      "name": "Mattilan Mummu",
      "location": "Sysmä",
      "weight_kg": null,
      "historical": "",
      "lat": 61.5839,
      "lon": 25.8022,
      "northing": 6828414,
      "easting": 436414,
      "notes": ""
    },
    {
      "id": 17,
      "name": "Nils-Fafas Lyfton",
      "location": "Sipoo",
      "weight_kg": null,
      "historical": "",
      "lat": 60.3337,
      "lon": 25.2702,
      "northing": 6689831,
      "easting": 404498,
      "notes": ""
    },
    {
      "id": 18,
      "name": "Björsby Lyftstenen",
      "location": "Jomala",
      "weight_kg": null,
      "historical": "",
      "lat": 60.1871,
      "lon": 19.9619,
      "northing": 6693064,
      "easting": 110147,
      "notes": ""
    }
  ]
}
